{"version": 0.6, "generator": "Overpass API 0.7.62.5 1bd436f1", "osm3s": {"timestamp_osm_base": "2025-03-24T00:26:00Z", "copyright": "The data included in this document is from www.openstreetmap.org. The data is made available under ODbL."}, "elements": [{"type": "node", "id": 364731431, "lat": 41.3901109, "lon": 2.1613666, "tags": {"amenity": "doctors", "name": "Sin Pelo"}}, {"type": "node", "id": 1404002958, "lat": 41.3798643, "lon": 2.1822355}, {"type": "node", "id": 1404002963, "lat": 41.3799007, "lon": 2.1823296}, {"type": "node", "id": 1404002975, "lat": 41.3799777, "lon": 2.1819865}, {"type": "node", "id": 1404002983, "lat": 41.3800597, "lon": 2.1819874}, {"type": "node", "id": 1404002984, "lat": 41.3801254, "lon": 2.1823401}, {"type": "node", "id": 1404002985, "lat": 41.3801632, "lon": 2.1822533}, {"type": "node", "id": 1728554110, "lat": 41.3921143, "lon": 2.1600822, "tags": {"amenity": "doctors", "emergency": "no", "healthcare": "doctor", "name": "Instituto Ana Torres"}}, {"type": "node", "id": 4634388789, "lat": 41.3942066, "lon": 2.1738875, "tags": {"amenity": "doctors", "healthcare": "doctor", "name": "Biovida", "name:es": "Biovida"}}, {"type": "node", "id": 4859450602, "lat": 41.379957, "lon": 2.1821338, "tags": {"addr:city": "Barcelona", "addr:postcode": "08039", "addr:province": "Barcelona", "addr:street": "Vial Moll de Bosch i Alsina", "amenity": "doctors", "check_date": "2023-07-29", "healthcare": "doctor", "local_ref": "1269", "name": "APB Serveis Medics", "nohousenumber": "yes", "ref:ES:catastro": "1813210DF3811D"}}, {"type": "node", "id": 5312117438, "lat": 41.3944417, "lon": 2.167333, "tags": {"amenity": "doctors", "name": "Hospital de Dia. Salut mental"}}, {"type": "node", "id": 7996790185, "lat": 41.3938931, "lon": 2.1714696, "tags": {"amenity": "doctors", "healthcare": "doctor", "name": "Centre m\u00e8dic Ultramed", "opening_hours": "Mo-Fr 09:00-20:00; Sa 09:00-13:00"}}, {"type": "node", "id": 8482973382, "lat": 41.386124, "lon": 2.1611827, "tags": {"addr:city": "Barcelona", "addr:housenumber": "199", "addr:street": "Carrer de la Diputaci\u00f3", "amenity": "doctors", "healthcare:speciality": "osteopathy", "name": "Kipu Deluxe"}}, {"type": "node", "id": 9138294722, "lat": 41.3904452, "lon": 2.160061, "tags": {"amenity": "doctors", "name": "Clinica Belodonte"}}, {"type": "node", "id": 9466716181, "lat": 41.3859998, "lon": 2.1604984, "tags": {"addr:city": "Barcelona", "addr:country": "ES", "addr:door": "3", "addr:floor": "5", "addr:housenumber": "40", "addr:postcode": "08011", "addr:street": "Carrer de Muntaner", "amenity": "doctors", "health_specialty:endocrinology": "yes", "level": "5", "name": "Antonio Mestr\u00f3n P\u00e9rez"}}, {"type": "node", "id": 9981212717, "lat": 41.3767083, "lon": 2.1604226, "tags": {"amenity": "doctors", "healthcare": "doctor", "name": "Centre de Di\u00e0lisi i Recerca Aplicada Cl\u00ednic"}}, {"type": "node", "id": 11078343805, "lat": 41.3937684, "lon": 2.1729678, "tags": {"addr:housenumber": "48", "addr:postcode": "08010", "addr:street": "Carrer de Girona", "amenity": "doctors", "internet_access": "wlan", "name": "Centro m\u00e9dico AXA", "opening_hours": "Su-Th 08:00-20:00", "phone": "+34932476680", "website": "https://www.centromedicobarcelona.axa.es/ca/"}}, {"type": "node", "id": 11078349605, "lat": 41.3936889, "lon": 2.1728044, "tags": {"addr:housenumber": "48", "addr:postcode": "08010", "addr:street": "Carrer de Girona", "amenity": "doctors", "internet_access": "wlan", "name": "Centro m\u00e9dico AXA", "opening_hours": "Su-Th 08:00-20:00", "phone": "+34932476680", "website": "https://www.centromedicobarcelona.axa.es/"}}, {"type": "node", "id": 11369761270, "lat": 41.3799024, "lon": 2.1823297}, {"type": "node", "id": 11716898475, "lat": 41.3799188, "lon": 2.1821136, "tags": {"entrance": "yes"}}, {"type": "way", "id": 126715494, "nodes": [1404002985, 1404002984, 11369761270, 1404002963, 1404002958, 11716898475, 1404002975, 1404002983, 1404002985], "tags": {"amenity": "doctors", "building": "yes", "healthcare": "doctor"}}]}