{"version": 0.6, "generator": "Overpass API 0.7.62.5 1bd436f1", "osm3s": {"timestamp_osm_base": "2025-03-24T00:15:46Z", "copyright": "The data included in this document is from www.openstreetmap.org. The data is made available under ODbL."}, "elements": [{"type": "node", "id": 11032002506, "lat": 7.5337506, "lon": 3.2196394, "tags": {"addr:street": "Aiyete", "amenity": "hospital", "name": "General Hospital"}}, {"type": "node", "id": 11032187705, "lat": 7.5444068, "lon": 3.2209434, "tags": {"addr:street": "Isamuni, Ibarapa North", "amenity": "hospital", "name": "Ayete health center"}}, {"type": "node", "id": 11032187905, "lat": 7.555652, "lon": 3.2282472, "tags": {"addr:street": "Tapa community", "amenity": "hospital", "name": "Tuberculosis and Leprosy center Tapa"}}, {"type": "node", "id": 11032214005, "lat": 7.5556767, "lon": 3.2284683, "tags": {"addr:street": "Tapa Community", "amenity": "hospital", "name": "Tuberculosis and Leprosy center"}}, {"type": "node", "id": 11032214105, "lat": 7.555432, "lon": 3.2281454, "tags": {"addr:street": "Tapa Community", "amenity": "hospital", "name": "Primary Health Center"}}, {"type": "node", "id": 11032247605, "lat": 7.552954, "lon": 3.2263308, "tags": {"addr:street": "Ayete community", "amenity": "hospital", "name": "Iyanu Medical Center"}}, {"type": "node", "id": 11032267805, "lat": 7.5620279, "lon": 3.2344588, "tags": {"addr:street": "Igboosa community", "amenity": "hospital", "name": "Six bed Primary Health care, Tapa"}}]}