{"version": 0.6, "generator": "Overpass API 0.7.62.5 1bd436f1", "osm3s": {"timestamp_osm_base": "2025-03-24T00:12:42Z", "copyright": "The data included in this document is from www.openstreetmap.org. The data is made available under ODbL."}, "elements": [{"type": "node", "id": 5238498832, "lat": 6.5819077, "lon": 3.3586042, "tags": {"amenity": "cafe", "name": "Choco-Latte", "opening_hours": "24/7"}}, {"type": "node", "id": 5649291418, "lat": 6.614455, "lon": 3.3579236, "tags": {"amenity": "cafe", "name": "Krispy Kreme"}}, {"type": "node", "id": 5649292326, "lat": 6.6141859, "lon": 3.3578727, "tags": {"amenity": "cafe", "name": "Mugg & Bean"}}, {"type": "node", "id": 5912282957, "lat": 6.597941, "lon": 3.3536679, "tags": {"addr:city": "Ikeja", "addr:country": "NG", "addr:housenumber": "17-19", "addr:postcode": "100281", "addr:state": "Lagos", "addr:street": "Allen Avenue", "amenity": "cafe", "contact:facebook": "https://www.facebook.com/dreamfieldsaladandjuicebar/", "cuisine": "juice;salad", "delivery": "yes", "internet_access": "wlan", "internet_access:fee": "no", "name": "Dreamfield Juice & Salad Bar", "opening_hours": "Mo-Th 06:30-20:30;Fr 06:30-22:00;Sa 09:00-22:00;Su 13:00-20:30", "phone": "+234 906 000 7683", "takeaway": "yes"}}, {"type": "node", "id": 8365601503, "lat": 6.650969, "lon": 3.3689526, "tags": {"amenity": "cafe"}}, {"type": "node", "id": 10155526830, "lat": 6.5658642, "lon": 3.3678312, "tags": {"amenity": "cafe"}}]}